[
    {
        "name": "BH Road",
        "state": "Kerala",
        "latitude": "11.413954128280155",
        "longitude": "75.93734128007216",
        "address": "Public Works Department Rest House, Kozhikode Wayanad Road, Kandampparakkal Colony, East Kizhakkoth, Thamarassery, Kozhikode district, Kerala, 673573, India"
    },
    {
        "name": "MYG",
        "state": "Kerala",
        "latitude": "11.32374902569823",
        "longitude": "75.9936269015732",
        "address": "my g digital hub, Quilandy - Thamarassery - Edavanna Road, Agastianmuzhi, Mukkam, Kozhikode, Kozhikode district, Kerala, 673602, India"
    },
    {
        "name": "Mavoor",
        "state": "Kerala",
        "latitude": "11.253719476825486",
        "longitude": "75.95381512051148",
        "address": "Mavoor, Kozhikode, Kozhikode district, Kerala, 673640, India"
    },
    {
        "name": "kdt",
        "state": "Kerala",
        "latitude": "11.14594848000013",
        "longitude": "75.97715306113388",
        "address": "kaloth, Kondotty, Malappuram, Kerala, 673638, India"
    },
    {
        "name": "wndr",
        "state": "Kerala",
        "latitude": "11.189061693779157",
        "longitude": "76.24759860834617",
        "address": "Wandoor, Nilambur, Malappuram, Kerala, 679328, India"
    },
    {
        "name": "kzd",
        "state": "Kerala",
        "latitude": "11.292776525064701",
        "longitude": "75.83437977732636",
        "address": "Kozhikode, Kozhikode district, Kerala, 673012, India"
    },
    {
        "name": "VICTOR JOSE",
        "state": "KERALA",
        "latitude": "11.109566732477708",
        "longitude": "76.13365454530748",
        "address": "PINAKKAT(H)",
        "ownerName": "ssssssssssss",
        "ownerNumber": "234567"
    },
    {
        "name": "VICTOR JOSE",
        "state": "KERALA",
        "latitude": "11.03678964069222",
        "longitude": "76.0828602039529",
        "address": "PINAKKAT(H)",
        "ownerName": "scs",
        "ownerNumber": "csxsc"
    },
    {
        "name": "wdw",
        "state": "Kerala",
        "latitude": "11.461064813050838",
        "longitude": "75.98813562142675",
        "address": "Kuppayakode - Kaippuram Road, \u0d08\u0d19\u0d4d\u0d19\u0d3e\u0d2a\u0d4d\u0d2a\u0d41\u0d34, \u0d24\u0d3e\u0d2e\u0d30\u0d36\u0d4d\u0d36\u0d47\u0d30\u0d3f, \u0d15\u0d4b\u0d34\u0d3f\u0d15\u0d4d\u0d15\u0d4b\u0d1f\u0d4d \u0d1c\u0d3f\u0d32\u0d4d\u0d32, Kerala, 673586, India",
        "ownerName": "dwwd",
        "ownerNumber": "dwwd"
    },
    {
        "name": "ertyui",
        "state": "Kerala",
        "latitude": "11.564680636705216",
        "longitude": "76.04030278281799",
        "address": "Wayanad Road, \u0d35\u0d48\u0d24\u0d4d\u0d24\u0d3f\u0d30\u0d3f, \u0d35\u0d2f\u0d28\u0d3e\u0d1f\u0d4d, Kerala, 673576, India"
    },
    {
        "name": "klp",
        "state": "Kerala",
        "latitude": "11.60234963189275",
        "longitude": "76.07874174384307",
        "address": "Kalpetta, \u0d35\u0d48\u0d24\u0d4d\u0d24\u0d3f\u0d30\u0d3f, \u0d35\u0d2f\u0d28\u0d3e\u0d1f\u0d4d, Kerala, 673121, India"
    },
    {
        "name": "engz",
        "state": "Kerala",
        "latitude": "11.467794270588506",
        "longitude": "75.98401716131693",
        "address": "\u0d08\u0d19\u0d4d\u0d19\u0d3e\u0d2a\u0d4d\u0d2a\u0d41\u0d34, \u0d24\u0d3e\u0d2e\u0d30\u0d36\u0d4d\u0d36\u0d47\u0d30\u0d3f, \u0d15\u0d4b\u0d34\u0d3f\u0d15\u0d4d\u0d15\u0d4b\u0d1f\u0d4d \u0d1c\u0d3f\u0d32\u0d4d\u0d32, Kerala, 673586, India"
    }
]